%time,field.header.seq,field.header.stamp,field.header.frame_id,field.ns,field.id,field.type,field.action,field.pose.position.x,field.pose.position.y,field.pose.position.z,field.pose.orientation.x,field.pose.orientation.y,field.pose.orientation.z,field.pose.orientation.w,field.scale.x,field.scale.y,field.scale.z,field.color.r,field.color.g,field.color.b,field.color.a,field.lifetime,field.frame_locked,field.points0.x,field.points0.y,field.points0.z,field.text,field.mesh_resource,field.mesh_use_embedded_materials
1558532710311049938,15482,1558532710287039995,/camera_color_optical_frame,marker,0,7,0,0.0,0.0,0.0,0.0,0.0,0.0,0.0,0.04,0.04,0.04,1.0,0.0,0.0,1.0,0,0,-0.0402759686112,-0.0429759807885,0.377000004053,,,0
1558532710381243944,15483,1558532710376061916,/camera_color_optical_frame,marker,0,7,0,0.0,0.0,0.0,0.0,0.0,0.0,0.0,0.04,0.04,0.04,1.0,0.0,0.0,1.0,0,0,-0.0402759686112,-0.0421605817974,0.377000004053,,,0
1558532710450331926,15484,1558532710449115991,/camera_color_optical_frame,marker,0,7,0,0.0,0.0,0.0,0.0,0.0,0.0,0.0,0.04,0.04,0.04,1.0,0.0,0.0,1.0,0,0,-0.0402759686112,-0.0413451865315,0.377000004053,,,0
1558532710519159078,15485,1558532710518062114,/camera_color_optical_frame,marker,0,7,0,0.0,0.0,0.0,0.0,0.0,0.0,0.0,0.04,0.04,0.04,1.0,0.0,0.0,1.0,0,0,-0.0402759686112,-0.0429759807885,0.377000004053,,,0
1558532710590328931,15486,1558532710588840007,/camera_color_optical_frame,marker,0,7,0,0.0,0.0,0.0,0.0,0.0,0.0,0.0,0.04,0.04,0.04,1.0,0.0,0.0,1.0,0,0,-0.0402759686112,-0.0429759807885,0.377000004053,,,0
1558532710672904968,15487,1558532710671799898,/camera_color_optical_frame,marker,0,7,0,0.0,0.0,0.0,0.0,0.0,0.0,0.0,0.04,0.04,0.04,1.0,0.0,0.0,1.0,0,0,-0.0409831218421,-0.0428619869053,0.376000016928,,,0
1558532710754400014,15488,1558532710753356933,/camera_color_optical_frame,marker,0,7,0,0.0,0.0,0.0,0.0,0.0,0.0,0.0,0.04,0.04,0.04,1.0,0.0,0.0,1.0,0,0,-0.0401691347361,-0.0428619869053,0.376000016928,,,0
1558532710832689046,15489,1558532710829818010,/camera_color_optical_frame,marker,0,7,0,0.0,0.0,0.0,0.0,0.0,0.0,0.0,0.04,0.04,0.04,1.0,0.0,0.0,1.0,0,0,-0.0408741235733,-0.0443701408803,0.375000029802,,,0
1558532710905559062,15490,1558532710903503894,/camera_color_optical_frame,marker,0,7,0,0.0,0.0,0.0,0.0,0.0,0.0,0.0,0.04,0.04,0.04,1.0,0.0,0.0,1.0,0,0,-0.0398486368358,-0.0449402481318,0.373000025749,,,0
1558532710995148897,15491,1558532710993861913,/camera_color_optical_frame,marker,0,7,0,0.0,0.0,0.0,0.0,0.0,0.0,0.0,0.04,0.04,0.04,1.0,0.0,0.0,1.0,0,0,-0.0405471287668,-0.045624345541,0.372000008821,,,0
1558532711079596996,15492,1558532711076879978,/camera_color_optical_frame,marker,0,7,0,0.0,0.0,0.0,0.0,0.0,0.0,0.0,0.04,0.04,0.04,1.0,0.0,0.0,1.0,0,0,-0.0395281389356,-0.0453790538013,0.370000004768,,,0
1558532711151803016,15493,1558532711150778055,/camera_color_optical_frame,marker,0,7,0,0.0,0.0,0.0,0.0,0.0,0.0,0.0,0.04,0.04,0.04,1.0,0.0,0.0,1.0,0,0,-0.041241299361,-0.0430944375694,0.371000021696,,,0
1558532711226795911,15494,1558532711224806070,/camera_color_optical_frame,marker,0,7,0,0.0,0.0,0.0,0.0,0.0,0.0,0.0,0.04,0.04,0.04,1.0,0.0,0.0,1.0,0,0,-0.0395281389356,-0.0461793094873,0.370000004768,,,0
1558532711311727046,15495,1558532711309092044,/camera_color_optical_frame,marker,0,7,0,0.0,0.0,0.0,0.0,0.0,0.0,0.0,0.04,0.04,0.04,1.0,0.0,0.0,1.0,0,0,-0.0404381342232,-0.0438968576491,0.371000021696,,,0
1558532711405652999,15496,1558532711399166107,/camera_color_optical_frame,marker,0,7,0,0.0,0.0,0.0,0.0,0.0,0.0,0.0,0.04,0.04,0.04,1.0,0.0,0.0,1.0,0,0,-0.0389364734292,-0.0440151765943,0.372000008821,,,0
1558532711495429039,15497,1558532711493019104,/camera_color_optical_frame,marker,0,7,0,0.0,0.0,0.0,0.0,0.0,0.0,0.0,0.04,0.04,0.04,1.0,0.0,0.0,1.0,0,0,-0.0383361540735,-0.0442518182099,0.374000012875,,,0
1558532711575417041,15498,1558532711574296951,/camera_color_optical_frame,marker,0,7,0,0.0,0.0,0.0,0.0,0.0,0.0,0.0,0.04,0.04,0.04,1.0,0.0,0.0,1.0,0,0,-0.039955470711,-0.0458696372807,0.374000012875,,,0
1558532711664849042,15499,1558532711663408994,/camera_color_optical_frame,marker,0,7,0,0.0,0.0,0.0,0.0,0.0,0.0,0.0,0.04,0.04,0.04,1.0,0.0,0.0,1.0,0,0,-0.0383361540735,-0.0434429086745,0.374000012875,,,0
1558532711733752965,15500,1558532711732084989,/camera_color_optical_frame,marker,0,7,0,0.0,0.0,0.0,0.0,0.0,0.0,0.0,0.04,0.04,0.04,1.0,0.0,0.0,1.0,0,0,-0.0383361540735,-0.0466785468161,0.374000012875,,,0
1558532711806159973,15501,1558532711804440975,/camera_color_optical_frame,marker,0,7,0,0.0,0.0,0.0,0.0,0.0,0.0,0.0,0.04,0.04,0.04,1.0,0.0,0.0,1.0,0,0,-0.0382336527109,-0.0449402481318,0.373000025749,,,0
1558532711887233972,15502,1558532711883930921,/camera_color_optical_frame,marker,0,7,0,0.0,0.0,0.0,0.0,0.0,0.0,0.0,0.04,0.04,0.04,1.0,0.0,0.0,1.0,0,0,-0.0349098406732,-0.045624345541,0.372000008821,,,0
1558532711977461099,15503,1558532711975888013,/camera_color_optical_frame,marker,0,7,0,0.0,0.0,0.0,0.0,0.0,0.0,0.0,0.04,0.04,0.04,1.0,0.0,0.0,1.0,0,0,-0.0315181612968,-0.04457879439,0.370000004768,,,0
1558532712056581020,15504,1558532712055708885,/camera_color_optical_frame,marker,0,7,0,0.0,0.0,0.0,0.0,0.0,0.0,0.0,0.04,0.04,0.04,1.0,0.0,0.0,1.0,0,0,-0.0199749376625,-0.0454304590821,0.364000022411,,,0
1558532712140816926,15505,1558532712139543056,/camera_color_optical_frame,marker,0,7,0,0.0,0.0,0.0,0.0,0.0,0.0,0.0,0.04,0.04,0.04,1.0,0.0,0.0,1.0,0,0,-0.00647035147995,-0.046230211854,0.358000010252,,,0
1558532712214891910,15506,1558532712213886976,/camera_color_optical_frame,marker,0,7,0,0.0,0.0,0.0,0.0,0.0,0.0,0.0,0.04,0.04,0.04,1.0,0.0,0.0,1.0,0,0,0.00820889789611,-0.0521317720413,0.356000006199,,,0
1558532712293813943,15507,1558532712292233943,/camera_color_optical_frame,marker,0,7,0,0.0,0.0,0.0,0.0,0.0,0.0,0.0,0.04,0.04,0.04,1.0,0.0,0.0,1.0,0,0,0.020539931953,-0.0529017485678,0.356000006199,,,0
1558532712387129068,15508,1558532712384917020,/camera_color_optical_frame,marker,0,7,0,0.0,0.0,0.0,0.0,0.0,0.0,0.0,0.04,0.04,0.04,1.0,0.0,0.0,1.0,0,0,0.0296208560467,-0.0510732419789,0.354000002146,,,0
1558532712488248109,15509,1558532712482090950,/camera_color_optical_frame,marker,0,7,0,0.0,0.0,0.0,0.0,0.0,0.0,0.0,0.04,0.04,0.04,1.0,0.0,0.0,1.0,0,0,0.0383785627782,-0.0542811490595,0.350000023842,,,0
1558532712576453924,15510,1558532712575141906,/camera_color_optical_frame,marker,0,7,0,0.0,0.0,0.0,0.0,0.0,0.0,0.0,0.04,0.04,0.04,1.0,0.0,0.0,1.0,0,0,0.0652689263225,-0.0660112351179,0.352000027895,,,0
1558532712658420085,15511,1558532712657408952,/camera_color_optical_frame,marker,0,7,0,0.0,0.0,0.0,0.0,0.0,0.0,0.0,0.04,0.04,0.04,1.0,0.0,0.0,1.0,0,0,0.0782246515155,-0.0665474832058,0.35900002718,,,0
1558532712744801998,15512,1558532712743117094,/camera_color_optical_frame,marker,0,7,0,0.0,0.0,0.0,0.0,0.0,0.0,0.0,0.04,0.04,0.04,1.0,0.0,0.0,1.0,0,0,0.0898824185133,-0.0673239603639,0.35900002718,,,0
1558532712816479921,15513,1558532712814901113,/camera_color_optical_frame,marker,0,7,0,0.0,0.0,0.0,0.0,0.0,0.0,0.0,0.04,0.04,0.04,1.0,0.0,0.0,1.0,0,0,0.0896494686604,-0.0611991211772,0.355000019073,,,0
1558532712911946058,15514,1558532712910913944,/camera_color_optical_frame,marker,0,7,0,0.0,0.0,0.0,0.0,0.0,0.0,0.0,0.04,0.04,0.04,1.0,0.0,0.0,1.0,0,0,0.0881298333406,-0.0545913279057,0.352000027895,,,0
1558532712980922937,15515,1558532712979988098,/camera_color_optical_frame,marker,0,7,0,0.0,0.0,0.0,0.0,0.0,0.0,0.0,0.04,0.04,0.04,1.0,0.0,0.0,1.0,0,0,0.0820335894823,-0.0454554073513,0.352000027895,,,0
1558532713049308061,15516,1558532713048481941,/camera_color_optical_frame,marker,0,7,0,0.0,0.0,0.0,0.0,0.0,0.0,0.0,0.04,0.04,0.04,1.0,0.0,0.0,1.0,0,0,0.0706031396985,-0.0393647924066,0.352000027895,,,0
1558532713114483118,15517,1558532713113409042,/camera_color_optical_frame,marker,0,7,0,0.0,0.0,0.0,0.0,0.0,0.0,0.0,0.04,0.04,0.04,1.0,0.0,0.0,1.0,0,0,0.0671711862087,-0.039141125977,0.350000023842,,,0
1558532713196888923,15518,1558532713195636034,/camera_color_optical_frame,marker,0,7,0,0.0,0.0,0.0,0.0,0.0,0.0,0.0,0.04,0.04,0.04,1.0,0.0,0.0,1.0,0,0,0.0648980811238,-0.039141125977,0.350000023842,,,0
1558532713274533033,15519,1558532713272814989,/camera_color_optical_frame,marker,0,7,0,0.0,0.0,0.0,0.0,0.0,0.0,0.0,0.04,0.04,0.04,1.0,0.0,0.0,1.0,0,0,0.0605243109167,-0.0415304489434,0.351000010967,,,0
1558532713354392051,15520,1558532713352823972,/camera_color_optical_frame,marker,0,7,0,0.0,0.0,0.0,0.0,0.0,0.0,0.0,0.04,0.04,0.04,1.0,0.0,0.0,1.0,0,0,0.0517199337482,-0.0494549162686,0.348000019789,,,0
1558532713449394941,15521,1558532713446430921,/camera_color_optical_frame,marker,0,7,0,0.0,0.0,0.0,0.0,0.0,0.0,0.0,0.04,0.04,0.04,1.0,0.0,0.0,1.0,0,0,0.0536698177457,-0.0506673976779,0.346000015736,,,0
1558532713537233114,15522,1558532713532547950,/camera_color_optical_frame,marker,0,7,0,0.0,0.0,0.0,0.0,0.0,0.0,0.0,0.04,0.04,0.04,1.0,0.0,0.0,1.0,0,0,0.0537897348404,-0.0537801347673,0.342000007629,,,0
1558532713606225013,15523,1558532713604985952,/camera_color_optical_frame,marker,0,7,0,0.0,0.0,0.0,0.0,0.0,0.0,0.0,0.04,0.04,0.04,1.0,0.0,0.0,1.0,0,0,0.0536324568093,-0.0573105625808,0.341000020504,,,0
1558532713688791036,15524,1558532713687304019,/camera_color_optical_frame,marker,0,7,0,0.0,0.0,0.0,0.0,0.0,0.0,0.0,0.04,0.04,0.04,1.0,0.0,0.0,1.0,0,0,0.0527391247451,-0.0600839816034,0.340000003576,,,0
1558532713755350112,15525,1558532713754437923,/camera_color_optical_frame,marker,0,7,0,0.0,0.0,0.0,0.0,0.0,0.0,0.0,0.04,0.04,0.04,1.0,0.0,0.0,1.0,0,0,0.0586275346577,-0.065966963768,0.340000003576,,,0
1558532713816306114,15526,1558532713815082073,/camera_color_optical_frame,marker,0,7,0,0.0,0.0,0.0,0.0,0.0,0.0,0.0,0.04,0.04,0.04,1.0,0.0,0.0,1.0,0,0,0.0648681744933,-0.0655789300799,0.338000029325,,,0
1558532713886425971,15527,1558532713884538888,/camera_color_optical_frame,marker,0,7,0,0.0,0.0,0.0,0.0,0.0,0.0,0.0,0.04,0.04,0.04,1.0,0.0,0.0,1.0,0,0,0.0699459761381,-0.0691756308079,0.34500002861,,,0
1558532713965989112,15528,1558532713964787006,/camera_color_optical_frame,marker,0,7,0,0.0,0.0,0.0,0.0,0.0,0.0,0.0,0.04,0.04,0.04,1.0,0.0,0.0,1.0,0,0,0.0786678865552,-0.0755741223693,0.354000002146,,,0
1558532714036329030,15529,1558532714034847974,/camera_color_optical_frame,marker,0,7,0,0.0,0.0,0.0,0.0,0.0,0.0,0.0,0.04,0.04,0.04,1.0,0.0,0.0,1.0,0,0,0.0929911509156,-0.0781944915652,0.35900002718,,,0
1558532714116755962,15530,1558532714115257024,/camera_color_optical_frame,marker,0,7,0,0.0,0.0,0.0,0.0,0.0,0.0,0.0,0.04,0.04,0.04,1.0,0.0,0.0,1.0,0,0,0.0937683358788,-0.0727592259645,0.35900002718,,,0
1558532714179630041,15531,1558532714177604913,/camera_color_optical_frame,marker,0,7,0,0.0,0.0,0.0,0.0,0.0,0.0,0.0,0.04,0.04,0.04,1.0,0.0,0.0,1.0,0,0,0.0934920832515,-0.06196693331,0.355000019073,,,0
1558532714268042087,15532,1558532714267155885,/camera_color_optical_frame,marker,0,7,0,0.0,0.0,0.0,0.0,0.0,0.0,0.0,0.04,0.04,0.04,1.0,0.0,0.0,1.0,0,0,0.0947182476521,-0.0559545643628,0.351000010967,,,0
1558532714360428094,15533,1558532714358556032,/camera_color_optical_frame,marker,0,7,0,0.0,0.0,0.0,0.0,0.0,0.0,0.0,0.04,0.04,0.04,1.0,0.0,0.0,1.0,0,0,0.0926674753428,-0.0518615469337,0.349000006914,,,0
1558532714454863071,15534,1558532714452999114,/camera_color_optical_frame,marker,0,7,0,0.0,0.0,0.0,0.0,0.0,0.0,0.0,0.04,0.04,0.04,1.0,0.0,0.0,1.0,0,0,0.0881342664361,-0.0465776771307,0.349000006914,,,0
1558532714549451112,15535,1558532714543100118,/camera_color_optical_frame,marker,0,7,0,0.0,0.0,0.0,0.0,0.0,0.0,0.0,0.04,0.04,0.04,1.0,0.0,0.0,1.0,0,0,0.0783123001456,-0.041293811053,0.349000006914,,,0
1558532714619539976,15536,1558532714618541955,/camera_color_optical_frame,marker,0,7,0,0.0,0.0,0.0,0.0,0.0,0.0,0.0,0.04,0.04,0.04,1.0,0.0,0.0,1.0,0,0,0.076801225543,-0.041293811053,0.349000006914,,,0
1558532714693192005,15537,1558532714692188978,/camera_color_optical_frame,marker,0,7,0,0.0,0.0,0.0,0.0,0.0,0.0,0.0,0.04,0.04,0.04,1.0,0.0,0.0,1.0,0,0,0.0711624249816,-0.0430487766862,0.351000010967,,,0
1558532714761857032,15538,1558532714759495019,/camera_color_optical_frame,marker,0,7,0,0.0,0.0,0.0,0.0,0.0,0.0,0.0,0.04,0.04,0.04,1.0,0.0,0.0,1.0,0,0,0.0675550177693,-0.0500233657658,0.352000027895,,,0
1558532714836188077,15539,1558532714834839105,/camera_color_optical_frame,marker,0,7,0,0.0,0.0,0.0,0.0,0.0,0.0,0.0,0.04,0.04,0.04,1.0,0.0,0.0,1.0,0,0,0.0671711862087,-0.0520101487637,0.350000023842,,,0
1558532714934190034,15540,1558532714933168888,/camera_color_optical_frame,marker,0,7,0,0.0,0.0,0.0,0.0,0.0,0.0,0.0,0.04,0.04,0.04,1.0,0.0,0.0,1.0,0,0,0.0669792667031,-0.0533712208271,0.349000006914,,,0
1558532715007057905,15541,1558532715005911111,/camera_color_optical_frame,marker,0,7,0,0.0,0.0,0.0,0.0,0.0,0.0,0.0,0.04,0.04,0.04,1.0,0.0,0.0,1.0,0,0,0.0673466324806,-0.0605704933405,0.347000002861,,,0
1558532715097163915,15542,1558532715094397068,/camera_color_optical_frame,marker,0,7,0,0.0,0.0,0.0,0.0,0.0,0.0,0.0,0.04,0.04,0.04,1.0,0.0,0.0,1.0,0,0,0.0696002542973,-0.0658240839839,0.347000002861,,,0
1558532715166451930,15543,1558532715163630962,/camera_color_optical_frame,marker,0,7,0,0.0,0.0,0.0,0.0,0.0,0.0,0.0,0.04,0.04,0.04,1.0,0.0,0.0,1.0,0,0,0.0711026638746,-0.068075619638,0.347000002861,,,0
1558532715234807014,15544,1558532715233127117,/camera_color_optical_frame,marker,0,7,0,0.0,0.0,0.0,0.0,0.0,0.0,0.0,0.04,0.04,0.04,1.0,0.0,0.0,1.0,0,0,0.0732327848673,-0.0739631801844,0.350000023842,,,0
1558532715309679031,15545,1558532715308574914,/camera_color_optical_frame,marker,0,7,0,0.0,0.0,0.0,0.0,0.0,0.0,0.0,0.04,0.04,0.04,1.0,0.0,0.0,1.0,0,0,0.0815024450421,-0.0768876224756,0.35300001502,,,0
1558532715389679908,15546,1558532715388628005,/camera_color_optical_frame,marker,0,7,0,0.0,0.0,0.0,0.0,0.0,0.0,0.0,0.04,0.04,0.04,1.0,0.0,0.0,1.0,0,0,0.0960998982191,-0.0789709612727,0.35900002718,,,0
1558532715460791110,15547,1558532715457268953,/camera_color_optical_frame,marker,0,7,0,0.0,0.0,0.0,0.0,0.0,0.0,0.0,0.04,0.04,0.04,1.0,0.0,0.0,1.0,0,0,0.097416780889,-0.0786301195621,0.361000031233,,,0
1558532715561986923,15548,1558532715538503885,/camera_color_optical_frame,marker,0,7,0,0.0,0.0,0.0,0.0,0.0,0.0,0.0,0.04,0.04,0.04,1.0,0.0,0.0,1.0,0,0,0.0948088690639,-0.0745191499591,0.360000014305,,,0
1558532715634114980,15549,1558532715627929925,/camera_color_optical_frame,marker,0,7,0,0.0,0.0,0.0,0.0,0.0,0.0,0.0,0.04,0.04,0.04,1.0,0.0,0.0,1.0,0,0,0.0935071408749,-0.0725565478206,0.358000010252,,,0
1558532715687304973,15550,1558532715686285972,/camera_color_optical_frame,marker,0,7,0,0.0,0.0,0.0,0.0,0.0,0.0,0.0,0.04,0.04,0.04,1.0,0.0,0.0,1.0,0,0,0.0891313031316,-0.0667613595724,0.356000006199,,,0
1558532715760731935,15551,1558532715755989074,/camera_color_optical_frame,marker,0,7,0,0.0,0.0,0.0,0.0,0.0,0.0,0.0,0.04,0.04,0.04,1.0,0.0,0.0,1.0,0,0,0.0901632830501,-0.0625580251217,0.354000002146,,,0
1558532715826303005,15552,1558532715825190067,/camera_color_optical_frame,marker,0,7,0,0.0,0.0,0.0,0.0,0.0,0.0,0.0,0.04,0.04,0.04,1.0,0.0,0.0,1.0,0,0,0.0878642052412,-0.0518388934433,0.354000002146,,,0
1558532715906089067,15553,1558532715904618978,/camera_color_optical_frame,marker,0,7,0,0.0,0.0,0.0,0.0,0.0,0.0,0.0,0.04,0.04,0.04,1.0,0.0,0.0,1.0,0,0,0.083030834794,-0.0455845408142,0.35300001502,,,0
1558532715979131937,15554,1558532715977914094,/camera_color_optical_frame,marker,0,7,0,0.0,0.0,0.0,0.0,0.0,0.0,0.0,0.04,0.04,0.04,1.0,0.0,0.0,1.0,0,0,0.0769172757864,-0.0425305813551,0.35300001502,,,0
1558532716048434019,15555,1558532716047187089,/camera_color_optical_frame,marker,0,7,0,0.0,0.0,0.0,0.0,0.0,0.0,0.0,0.04,0.04,0.04,1.0,0.0,0.0,1.0,0,0,0.07441329211,-0.0439327508211,0.352000027895,,,0
1558532716121337890,15556,1558532716119925022,/camera_color_optical_frame,marker,0,7,0,0.0,0.0,0.0,0.0,0.0,0.0,0.0,0.04,0.04,0.04,1.0,0.0,0.0,1.0,0,0,0.0730962976813,-0.0455845408142,0.35300001502,,,0
1558532716208998918,15557,1558532716207580089,/camera_color_optical_frame,marker,0,7,0,0.0,0.0,0.0,0.0,0.0,0.0,0.0,0.04,0.04,0.04,1.0,0.0,0.0,1.0,0,0,0.0723321065307,-0.0478750094771,0.35300001502,,,0
1558532716302229881,15558,1558532716296014070,/camera_color_optical_frame,marker,0,7,0,0.0,0.0,0.0,0.0,0.0,0.0,0.0,0.04,0.04,0.04,1.0,0.0,0.0,1.0,0,0,0.0696426928043,-0.0498812496662,0.351000010967,,,0
1558532716378134965,15559,1558532716376848936,/camera_color_optical_frame,marker,0,7,0,0.0,0.0,0.0,0.0,0.0,0.0,0.0,0.04,0.04,0.04,1.0,0.0,0.0,1.0,0,0,0.0711624249816,-0.0521587468684,0.351000010967,,,0
1558532716442337036,15560,1558532716440953969,/camera_color_optical_frame,marker,0,7,0,0.0,0.0,0.0,0.0,0.0,0.0,0.0,0.04,0.04,0.04,1.0,0.0,0.0,1.0,0,0,0.0722680091858,-0.0533712208271,0.349000006914,,,0
1558532716523333072,15561,1558532716518309116,/camera_color_optical_frame,marker,0,7,0,0.0,0.0,0.0,0.0,0.0,0.0,0.0,0.04,0.04,0.04,1.0,0.0,0.0,1.0,0,0,0.0720609426498,-0.0532182976604,0.348000019789,,,0
1558532716631417036,15562,1558532716602334976,/camera_color_optical_frame,marker,0,7,0,0.0,0.0,0.0,0.0,0.0,0.0,0.0,0.04,0.04,0.04,1.0,0.0,0.0,1.0,0,0,0.0741074904799,-0.0538158789277,0.347000002861,,,0
1558532716690129995,15563,1558532716685909986,/camera_color_optical_frame,marker,0,7,0,0.0,0.0,0.0,0.0,0.0,0.0,0.0,0.04,0.04,0.04,1.0,0.0,0.0,1.0,0,0,0.0738939270377,-0.0551574900746,0.346000015736,,,0
1558532716770734071,15564,1558532716769790887,/camera_color_optical_frame,marker,0,7,0,0.0,0.0,0.0,0.0,0.0,0.0,0.0,0.04,0.04,0.04,1.0,0.0,0.0,1.0,0,0,0.0736803635955,-0.0564904510975,0.34500002861,,,0
1558532716842700004,15565,1558532716841800928,/camera_color_optical_frame,marker,0,7,0,0.0,0.0,0.0,0.0,0.0,0.0,0.0,0.04,0.04,0.04,1.0,0.0,0.0,1.0,0,0,0.0727220773697,-0.0563267096877,0.344000011683,,,0
1558532716939013957,15566,1558532716936955928,/camera_color_optical_frame,marker,0,7,0,0.0,0.0,0.0,0.0,0.0,0.0,0.0,0.04,0.04,0.04,1.0,0.0,0.0,1.0,0,0,0.0727220773697,-0.0578147619963,0.344000011683,,,0
1558532717022100925,15567,1558532717021255016,/camera_color_optical_frame,marker,0,7,0,0.0,0.0,0.0,0.0,0.0,0.0,0.0,0.04,0.04,0.04,1.0,0.0,0.0,1.0,0,0,0.0729334801435,-0.062459949404,0.34500002861,,,0
1558532717097986936,15568,1558532717096759080,/camera_color_optical_frame,marker,0,7,0,0.0,0.0,0.0,0.0,0.0,0.0,0.0,0.04,0.04,0.04,1.0,0.0,0.0,1.0,0,0,0.0702830404043,-0.0635815784335,0.343000024557,,,0
1558532717165656089,15569,1558532717163014888,/camera_color_optical_frame,marker,0,7,0,0.0,0.0,0.0,0.0,0.0,0.0,0.0,0.04,0.04,0.04,1.0,0.0,0.0,1.0,0,0,0.0710255876184,-0.0658071711659,0.343000024557,,,0
1558532717256247997,15570,1558532717255244970,/camera_color_optical_frame,marker,0,7,0,0.0,0.0,0.0,0.0,0.0,0.0,0.0,0.04,0.04,0.04,1.0,0.0,0.0,1.0,0,0,0.0715588927269,-0.0685741007328,0.342000007629,,,0
1558532717331594944,15571,1558532717330362081,/camera_color_optical_frame,marker,0,7,0,0.0,0.0,0.0,0.0,0.0,0.0,0.0,0.04,0.04,0.04,1.0,0.0,0.0,1.0,0,0,0.0536544024944,-0.0715954974294,0.332000017166,,,0
1558532717414880037,15572,1558532717413676977,/camera_color_optical_frame,marker,0,7,0,0.0,0.0,0.0,0.0,0.0,0.0,0.0,0.04,0.04,0.04,1.0,0.0,0.0,1.0,0,0,0.0418403074145,-0.0726733654737,0.324000000954,,,0
1558532717692897081,15573,1558532717674686908,/camera_color_optical_frame,marker,0,7,0,0.0,0.0,0.0,0.0,0.0,0.0,0.0,0.04,0.04,0.04,1.0,0.0,0.0,1.0,0,0,-0.0238886047155,-0.0469780601561,0.352000027895,,,0
1558532717774444103,15574,1558532717771786928,/camera_color_optical_frame,marker,0,7,0,0.0,0.0,0.0,0.0,0.0,0.0,0.0,0.04,0.04,0.04,1.0,0.0,0.0,1.0,0,0,-0.0359210856259,-0.0454559102654,0.358000010252,,,0
1558532717843981981,15575,1558532717843027114,/camera_color_optical_frame,marker,0,7,0,0.0,0.0,0.0,0.0,0.0,0.0,0.0,0.04,0.04,0.04,1.0,0.0,0.0,1.0,0,0,-0.0374136269093,-0.0416080467403,0.365000009537,,,0
1558532717921747922,15576,1558532717920926094,/camera_color_optical_frame,marker,0,7,0,0.0,0.0,0.0,0.0,0.0,0.0,0.0,0.04,0.04,0.04,1.0,0.0,0.0,1.0,0,0,-0.0396349728107,-0.0430944375694,0.371000021696,,,0
1558532718017735004,15577,1558532718016371011,/camera_color_optical_frame,marker,0,7,0,0.0,0.0,0.0,0.0,0.0,0.0,0.0,0.04,0.04,0.04,1.0,0.0,0.0,1.0,0,0,-0.0391458123922,-0.0442518182099,0.374000012875,,,0
1558532718098866939,15578,1558532718096582889,/camera_color_optical_frame,marker,0,7,0,0.0,0.0,0.0,0.0,0.0,0.0,0.0,0.04,0.04,0.04,1.0,0.0,0.0,1.0,0,0,-0.0330179519951,-0.0406372956932,0.378000020981,,,0
1558532718176542043,15579,1558532718174669027,/camera_color_optical_frame,marker,0,7,0,0.0,0.0,0.0,0.0,0.0,0.0,0.0,0.04,0.04,0.04,1.0,0.0,0.0,1.0,0,0,-0.0310481265187,-0.0404517911375,0.384000003338,,,0
1558532718248528957,15580,1558532718247596979,/camera_color_optical_frame,marker,0,7,0,0.0,0.0,0.0,0.0,0.0,0.0,0.0,0.04,0.04,0.04,1.0,0.0,0.0,1.0,0,0,-0.034462865442,-0.0430552400649,0.385000020266,,,0
1558532718332813024,15581,1558532718331788063,/camera_color_optical_frame,marker,0,7,0,0.0,0.0,0.0,0.0,0.0,0.0,0.0,0.04,0.04,0.04,1.0,0.0,0.0,1.0,0,0,-0.0368672683835,-0.0429434068501,0.384000003338,,,0
1558532718417128086,15582,1558532718416023015,/camera_color_optical_frame,marker,0,7,0,0.0,0.0,0.0,0.0,0.0,0.0,0.0,0.04,0.04,0.04,1.0,0.0,0.0,1.0,0,0,-0.0352852158248,-0.0396090485156,0.376000016928,,,0
1558532718508229970,15583,1558532718507229089,/camera_color_optical_frame,marker,0,7,0,0.0,0.0,0.0,0.0,0.0,0.0,0.0,0.04,0.04,0.04,1.0,0.0,0.0,1.0,0,0,-0.0322848185897,-0.0391053520143,0.379000008106,,,0
1558532718581753015,15584,1558532718580589056,/camera_color_optical_frame,marker,0,7,0,0.0,0.0,0.0,0.0,0.0,0.0,0.0,0.04,0.04,0.04,1.0,0.0,0.0,1.0,0,0,-0.0311289839447,-0.039724431932,0.385000020266,,,0
1558532718659883022,15585,1558532718655246973,/camera_color_optical_frame,marker,0,7,0,0.0,0.0,0.0,0.0,0.0,0.0,0.0,0.04,0.04,0.04,1.0,0.0,0.0,1.0,0,0,-0.0362236499786,-0.0414973422885,0.386000007391,,,0
1558532718750070095,15586,1558532718744220972,/camera_color_optical_frame,marker,0,7,0,0.0,0.0,0.0,0.0,0.0,0.0,0.0,0.04,0.04,0.04,1.0,0.0,0.0,1.0,0,0,-0.0356605909765,-0.0408523082733,0.380000025034,,,0
1558532718820483922,15587,1558532718819013118,/camera_color_optical_frame,marker,0,7,0,0.0,0.0,0.0,0.0,0.0,0.0,0.0,0.04,0.04,0.04,1.0,0.0,0.0,1.0,0,0,-0.0333673469722,-0.0410673208535,0.382000029087,,,0
1558532718880171060,15588,1558532718879475116,/camera_color_optical_frame,marker,0,7,0,0.0,0.0,0.0,0.0,0.0,0.0,0.0,0.04,0.04,0.04,1.0,0.0,0.0,1.0,0,0,-0.0318794362247,-0.0404517911375,0.384000003338,,,0
1558532718949424028,15589,1558532718948282003,/camera_color_optical_frame,marker,0,7,0,0.0,0.0,0.0,0.0,0.0,0.0,0.0,0.04,0.04,0.04,1.0,0.0,0.0,1.0,0,0,-0.0336293950677,-0.0405571386218,0.385000020266,,,0
1558532719014832019,15590,1558532719013140916,/camera_color_optical_frame,marker,0,7,0,0.0,0.0,0.0,0.0,0.0,0.0,0.0,0.04,0.04,0.04,1.0,0.0,0.0,1.0,0,0,-0.0327959246933,-0.0405571386218,0.385000020266,,,0
1558532719073870897,15591,1558532719072853088,/camera_color_optical_frame,marker,0,7,0,0.0,0.0,0.0,0.0,0.0,0.0,0.0,0.04,0.04,0.04,1.0,0.0,0.0,1.0,0,0,-0.0327959246933,-0.039724431932,0.385000020266,,,0
1558532719146342992,15592,1558532719145560026,/camera_color_optical_frame,marker,0,7,0,0.0,0.0,0.0,0.0,0.0,0.0,0.0,0.04,0.04,0.04,1.0,0.0,0.0,1.0,0,0,-0.0327107384801,-0.0404517911375,0.384000003338,,,0
1558532719227945089,15593,1558532719226372003,/camera_color_optical_frame,marker,0,7,0,0.0,0.0,0.0,0.0,0.0,0.0,0.0,0.04,0.04,0.04,1.0,0.0,0.0,1.0,0,0,-0.0327107384801,-0.0396212525666,0.384000003338,,,0
1558532719313992023,15594,1558532719313002109,/camera_color_optical_frame,marker,0,7,0,0.0,0.0,0.0,0.0,0.0,0.0,0.0,0.04,0.04,0.04,1.0,0.0,0.0,1.0,0,0,-0.0335420444608,-0.0404517911375,0.384000003338,,,0
1558532719394201993,15595,1558532719391304016,/camera_color_optical_frame,marker,0,7,0,0.0,0.0,0.0,0.0,0.0,0.0,0.0,0.04,0.04,0.04,1.0,0.0,0.0,1.0,0,0,-0.0342838391662,-0.0395180732012,0.383000016212,,,0
1558532719466701984,15596,1558532719464935064,/camera_color_optical_frame,marker,0,7,0,0.0,0.0,0.0,0.0,0.0,0.0,0.0,0.04,0.04,0.04,1.0,0.0,0.0,1.0,0,0,-0.0348379425704,-0.0392085313797,0.380000025034,,,0
1558532719542164087,15597,1558532719540822029,/camera_color_optical_frame,marker,0,7,0,0.0,0.0,0.0,0.0,0.0,0.0,0.0,0.04,0.04,0.04,1.0,0.0,0.0,1.0,0,0,-0.0347462631762,-0.0391053520143,0.379000008106,,,0
1558532719615174055,15598,1558532719613600015,/camera_color_optical_frame,marker,0,7,0,0.0,0.0,0.0,0.0,0.0,0.0,0.0,0.04,0.04,0.04,1.0,0.0,0.0,1.0,0,0,-0.0356605909765,-0.0392085313797,0.380000025034,,,0
1558532719699254035,15599,1558532719698007106,/camera_color_optical_frame,marker,0,7,0,0.0,0.0,0.0,0.0,0.0,0.0,0.0,0.04,0.04,0.04,1.0,0.0,0.0,1.0,0,0,-0.0330179519951,-0.0390021726489,0.378000020981,,,0
1558532719792104959,15600,1558532719790927886,/camera_color_optical_frame,marker,0,7,0,0.0,0.0,0.0,0.0,0.0,0.0,0.0,0.04,0.04,0.04,1.0,0.0,0.0,1.0,0,0,-0.0331052988768,-0.0399250760674,0.379000008106,,,0
1558532719877881050,15601,1558532719873045921,/camera_color_optical_frame,marker,0,7,0,0.0,0.0,0.0,0.0,0.0,0.0,0.0,0.04,0.04,0.04,1.0,0.0,0.0,1.0,0,0,-0.0334546975791,-0.0403464511037,0.383000016212,,,0
1558532719951828956,15602,1558532719950025081,/camera_color_optical_frame,marker,0,7,0,0.0,0.0,0.0,0.0,0.0,0.0,0.0,0.04,0.04,0.04,1.0,0.0,0.0,1.0,0,0,-0.0343733504415,-0.0404517911375,0.384000003338,,,0
1558532720031541109,15603,1558532720029627084,/camera_color_optical_frame,marker,0,7,0,0.0,0.0,0.0,0.0,0.0,0.0,0.0,0.04,0.04,0.04,1.0,0.0,0.0,1.0,0,0,-0.0343733504415,-0.0404517911375,0.384000003338,,,0
1558532720115679025,15604,1558532720113676071,/camera_color_optical_frame,marker,0,7,0,0.0,0.0,0.0,0.0,0.0,0.0,0.0,0.04,0.04,0.04,1.0,0.0,0.0,1.0,0,0,-0.0342838391662,-0.0403464511037,0.383000016212,,,0
1558532720188309907,15605,1558532720187376022,/camera_color_optical_frame,marker,0,7,0,0.0,0.0,0.0,0.0,0.0,0.0,0.0,0.04,0.04,0.04,1.0,0.0,0.0,1.0,0,0,-0.0334546975791,-0.0395180732012,0.383000016212,,,0
1558532720265419960,15606,1558532720264590978,/camera_color_optical_frame,marker,0,7,0,0.0,0.0,0.0,0.0,0.0,0.0,0.0,0.04,0.04,0.04,1.0,0.0,0.0,1.0,0,0,-0.0334546975791,-0.0395180732012,0.383000016212,,,0
1558532720345329999,15607,1558532720344194889,/camera_color_optical_frame,marker,0,7,0,0.0,0.0,0.0,0.0,0.0,0.0,0.0,0.04,0.04,0.04,1.0,0.0,0.0,1.0,0,0,-0.0342838391662,-0.0411748252809,0.383000016212,,,0
