%time,field.header.seq,field.header.stamp,field.header.frame_id,field.ns,field.id,field.type,field.action,field.pose.position.x,field.pose.position.y,field.pose.position.z,field.pose.orientation.x,field.pose.orientation.y,field.pose.orientation.z,field.pose.orientation.w,field.scale.x,field.scale.y,field.scale.z,field.color.r,field.color.g,field.color.b,field.color.a,field.lifetime,field.frame_locked,field.points0.x,field.points0.y,field.points0.z,field.text,field.mesh_resource,field.mesh_use_embedded_materials
1558534206720875024,4557,1558534206720629930,/camera_color_optical_frame,marker,0,7,0,0.0,0.0,0.0,0.0,0.0,0.0,0.0,0.04,0.04,0.04,1.0,0.0,0.0,1.0,0,0,-0.0672957226634,0.00256519159302,0.360000014305,,,0
1558534206765425920,4558,1558534206765048980,/camera_color_optical_frame,marker,0,7,0,0.0,0.0,0.0,0.0,0.0,0.0,0.0,0.04,0.04,0.04,1.0,0.0,0.0,1.0,0,0,-0.0672554522753,0.00259369378909,0.364000022411,,,0
1558534206796542882,4559,1558534206796233892,/camera_color_optical_frame,marker,0,7,0,0.0,0.0,0.0,0.0,0.0,0.0,0.0,0.04,0.04,0.04,1.0,0.0,0.0,1.0,0,0,-0.0672554522753,0.00259369378909,0.364000022411,,,0
1558534206828960895,4560,1558534206828663110,/camera_color_optical_frame,marker,0,7,0,0.0,0.0,0.0,0.0,0.0,0.0,0.0,0.04,0.04,0.04,1.0,0.0,0.0,1.0,0,0,-0.067380450666,0.00262932130136,0.369000017643,,,0
1558534206859069108,4561,1558534206858774900,/camera_color_optical_frame,marker,0,7,0,0.0,0.0,0.0,0.0,0.0,0.0,0.0,0.04,0.04,0.04,1.0,0.0,0.0,1.0,0,0,-0.0681792870164,0.00262932130136,0.369000017643,,,0
1558534206902704954,4562,1558534206902333974,/camera_color_optical_frame,marker,0,7,0,0.0,0.0,0.0,0.0,0.0,0.0,0.0,0.04,0.04,0.04,1.0,0.0,0.0,1.0,0,0,-0.0679945200682,0.00262219598517,0.368000030518,,,0
1558534206934964895,4563,1558534206934464931,/camera_color_optical_frame,marker,0,7,0,0.0,0.0,0.0,0.0,0.0,0.0,0.0,0.04,0.04,0.04,1.0,0.0,0.0,1.0,0,0,-0.0678097531199,0.00102753075771,0.36700001359,,,0
1558534206967880010,4564,1558534206967444896,/camera_color_optical_frame,marker,0,7,0,0.0,0.0,0.0,0.0,0.0,0.0,0.0,0.04,0.04,0.04,1.0,0.0,0.0,1.0,0,0,-0.0676249861717,-0.000558482948691,0.366000026464,,,0
1558534206997919082,4565,1558534206997639894,/camera_color_optical_frame,marker,0,7,0,0.0,0.0,0.0,0.0,0.0,0.0,0.0,0.04,0.04,0.04,1.0,0.0,0.0,1.0,0,0,-0.0670706778765,-0.0021241416689,0.363000005484,,,0
1558534207040611982,4566,1558534207040175914,/camera_color_optical_frame,marker,0,7,0,0.0,0.0,0.0,0.0,0.0,0.0,0.0,0.04,0.04,0.04,1.0,0.0,0.0,1.0,0,0,-0.0,-0.0,0.0,,,0
1558534207073124885,4567,1558534207072686910,/camera_color_optical_frame,marker,0,7,0,0.0,0.0,0.0,0.0,0.0,0.0,0.0,0.04,0.04,0.04,1.0,0.0,0.0,1.0,0,0,-0.0665163770318,-0.00911425426602,0.360000014305,,,0
1558534207103230953,4568,1558534207102871894,/camera_color_optical_frame,marker,0,7,0,0.0,0.0,0.0,0.0,0.0,0.0,0.0,0.04,0.04,0.04,1.0,0.0,0.0,1.0,0,0,-0.0661468431354,-0.0113865323365,0.358000010252,,,0
1558534207136554956,4569,1558534207136312961,/camera_color_optical_frame,marker,0,7,0,0.0,0.0,0.0,0.0,0.0,0.0,0.0,0.04,0.04,0.04,1.0,0.0,0.0,1.0,0,0,-0.0663316100836,-0.0137477396056,0.35900002718,,,0
1558534207170727968,4570,1558534207170059919,/camera_color_optical_frame,marker,0,7,0,0.0,0.0,0.0,0.0,0.0,0.0,0.0,0.04,0.04,0.04,1.0,0.0,0.0,1.0,0,0,-0.0655544251204,-0.0160771403462,0.35900002718,,,0
1558534207204216003,4571,1558534207203771114,/camera_color_optical_frame,marker,0,7,0,0.0,0.0,0.0,0.0,0.0,0.0,0.0,0.04,0.04,0.04,1.0,0.0,0.0,1.0,0,0,-0.0669218599796,-0.01680666022,0.358000010252,,,0
1558534207234541893,4572,1558534207234170913,/camera_color_optical_frame,marker,0,7,0,0.0,0.0,0.0,0.0,0.0,0.0,0.0,0.04,0.04,0.04,1.0,0.0,0.0,1.0,0,0,-0.0659196302295,-0.0185090843588,0.361000031233,,,0
1558534207263348102,4573,1558534207263029098,/camera_color_optical_frame,marker,0,7,0,0.0,0.0,0.0,0.0,0.0,0.0,0.0,0.04,0.04,0.04,1.0,0.0,0.0,1.0,0,0,-0.0657370239496,-0.0184578113258,0.360000014305,,,0
1558534207296001911,4574,1558534207295670986,/camera_color_optical_frame,marker,0,7,0,0.0,0.0,0.0,0.0,0.0,0.0,0.0,0.04,0.04,0.04,1.0,0.0,0.0,1.0,0,0,-0.0669218599796,-0.0191295724362,0.358000010252,,,0
1558534207330240011,4575,1558534207329906940,/camera_color_optical_frame,marker,0,7,0,0.0,0.0,0.0,0.0,0.0,0.0,0.0,0.04,0.04,0.04,1.0,0.0,0.0,1.0,0,0,-0.0669218599796,-0.0191295724362,0.358000010252,,,0
1558534207367415904,4576,1558534207366961956,/camera_color_optical_frame,marker,0,7,0,0.0,0.0,0.0,0.0,0.0,0.0,0.0,0.04,0.04,0.04,1.0,0.0,0.0,1.0,0,0,-0.0676968768239,-0.0199038758874,0.358000010252,,,0
1558534207401978969,4577,1558534207401576042,/camera_color_optical_frame,marker,0,7,0,0.0,0.0,0.0,0.0,0.0,0.0,0.0,0.04,0.04,0.04,1.0,0.0,0.0,1.0,0,0,-0.0686631649733,-0.0191830080003,0.35900002718,,,0
1558534207435645103,4578,1558534207435332059,/camera_color_optical_frame,marker,0,7,0,0.0,0.0,0.0,0.0,0.0,0.0,0.0,0.04,0.04,0.04,1.0,0.0,0.0,1.0,0,0,-0.0686631649733,-0.0191830080003,0.35900002718,,,0
1558534207464230060,4579,1558534207463825941,/camera_color_optical_frame,marker,0,7,0,0.0,0.0,0.0,0.0,0.0,0.0,0.0,0.04,0.04,0.04,1.0,0.0,0.0,1.0,0,0,-0.0690456852317,-0.0192898772657,0.361000031233,,,0
1558534207493525028,4580,1558534207493211984,/camera_color_optical_frame,marker,0,7,0,0.0,0.0,0.0,0.0,0.0,0.0,0.0,0.04,0.04,0.04,1.0,0.0,0.0,1.0,0,0,-0.0688544213772,-0.0184578113258,0.360000014305,,,0
1558534207529181003,4581,1558534207528836965,/camera_color_optical_frame,marker,0,7,0,0.0,0.0,0.0,0.0,0.0,0.0,0.0,0.04,0.04,0.04,1.0,0.0,0.0,1.0,0,0,-0.0682641714811,-0.0177282914519,0.361000031233,,,0
1558534207561961889,4582,1558534207561608076,/camera_color_optical_frame,marker,0,7,0,0.0,0.0,0.0,0.0,0.0,0.0,0.0,0.04,0.04,0.04,1.0,0.0,0.0,1.0,0,0,-0.0676695927978,-0.0177774000913,0.362000018358,,,0
1558534207595539093,4583,1558534207595149040,/camera_color_optical_frame,marker,0,7,0,0.0,0.0,0.0,0.0,0.0,0.0,0.0,0.04,0.04,0.04,1.0,0.0,0.0,1.0,0,0,-0.0676695927978,-0.0185603555292,0.362000018358,,,0
1558534207628587961,4584,1558534207628340005,/camera_color_optical_frame,marker,0,7,0,0.0,0.0,0.0,0.0,0.0,0.0,0.0,0.04,0.04,0.04,1.0,0.0,0.0,1.0,0,0,-0.0682641714811,-0.0185090843588,0.361000031233,,,0
1558534207663472890,4585,1558534207663192987,/camera_color_optical_frame,marker,0,7,0,0.0,0.0,0.0,0.0,0.0,0.0,0.0,0.04,0.04,0.04,1.0,0.0,0.0,1.0,0,0,-0.0684532672167,-0.0193433109671,0.362000018358,,,0
1558534207695781946,4586,1558534207695492029,/camera_color_optical_frame,marker,0,7,0,0.0,0.0,0.0,0.0,0.0,0.0,0.0,0.04,0.04,0.04,1.0,0.0,0.0,1.0,0,0,-0.0668859109282,-0.020126266405,0.362000018358,,,0
1558534207718890905,4587,1558534207718511104,/camera_color_optical_frame,marker,0,7,0,0.0,0.0,0.0,0.0,0.0,0.0,0.0,0.04,0.04,0.04,1.0,0.0,0.0,1.0,0,0,-0.0653185546398,-0.0209092218429,0.362000018358,,,0
1558534207761993885,4588,1558534207761715888,/camera_color_optical_frame,marker,0,7,0,0.0,0.0,0.0,0.0,0.0,0.0,0.0,0.04,0.04,0.04,1.0,0.0,0.0,1.0,0,0,-0.0654989853501,-0.0233223363757,0.363000005484,,,0
1558534207801696062,4589,1558534207800993919,/camera_color_optical_frame,marker,0,7,0,0.0,0.0,0.0,0.0,0.0,0.0,0.0,0.04,0.04,0.04,1.0,0.0,0.0,1.0,0,0,-0.0639273002744,-0.0272479280829,0.363000005484,,,0
1558534207833245038,4590,1558534207832576036,/camera_color_optical_frame,marker,0,7,0,0.0,0.0,0.0,0.0,0.0,0.0,0.0,0.04,0.04,0.04,1.0,0.0,0.0,1.0,0,0,-0.0601633712649,-0.0281102731824,0.364000022411,,,0
1558534207864655017,4591,1558534207864336013,/camera_color_optical_frame,marker,0,7,0,0.0,0.0,0.0,0.0,0.0,0.0,0.0,0.04,0.04,0.04,1.0,0.0,0.0,1.0,0,0,-0.0593753643334,-0.0288975536823,0.364000022411,,,0
1558534207896668910,4592,1558534207896344900,/camera_color_optical_frame,marker,0,7,0,0.0,0.0,0.0,0.0,0.0,0.0,0.0,0.04,0.04,0.04,1.0,0.0,0.0,1.0,0,0,-0.0611188262701,-0.0305558312684,0.365000009537,,,0
1558534207929924964,4593,1558534207929640054,/camera_color_optical_frame,marker,0,7,0,0.0,0.0,0.0,0.0,0.0,0.0,0.0,0.04,0.04,0.04,1.0,0.0,0.0,1.0,0,0,-0.0603286549449,-0.0297663845122,0.365000009537,,,0
1558534207961545944,4594,1558534207961201906,/camera_color_optical_frame,marker,0,7,0,0.0,0.0,0.0,0.0,0.0,0.0,0.0,0.04,0.04,0.04,1.0,0.0,0.0,1.0,0,0,-0.0603286549449,-0.0289769414812,0.365000009537,,,0
1558534207995976924,4595,1558534207995733976,/camera_color_optical_frame,marker,0,7,0,0.0,0.0,0.0,0.0,0.0,0.0,0.0,0.04,0.04,0.04,1.0,0.0,0.0,1.0,0,0,-0.0619089975953,-0.0289769414812,0.365000009537,,,0
1558534208025979995,4596,1558534208025666952,/camera_color_optical_frame,marker,0,7,0,0.0,0.0,0.0,0.0,0.0,0.0,0.0,0.04,0.04,0.04,1.0,0.0,0.0,1.0,0,0,-0.061739385128,-0.0265357121825,0.364000022411,,,0
1558534208067972898,4597,1558534208067657947,/camera_color_optical_frame,marker,0,7,0,0.0,0.0,0.0,0.0,0.0,0.0,0.0,0.04,0.04,0.04,1.0,0.0,0.0,1.0,0,0,-0.0619089975953,-0.0273980554193,0.365000009537,,,0
1558534208101064920,4598,1558534208100537061,/camera_color_optical_frame,marker,0,7,0,0.0,0.0,0.0,0.0,0.0,0.0,0.0,0.04,0.04,0.04,1.0,0.0,0.0,1.0,0,0,-0.0626991763711,-0.0266086105257,0.365000009537,,,0
1558534208130856990,4599,1558534208130496025,/camera_color_optical_frame,marker,0,7,0,0.0,0.0,0.0,0.0,0.0,0.0,0.0,0.04,0.04,0.04,1.0,0.0,0.0,1.0,0,0,-0.0628709569573,-0.0274731200188,0.366000026464,,,0
1558534208165301084,4600,1558534208164904117,/camera_color_optical_frame,marker,0,7,0,0.0,0.0,0.0,0.0,0.0,0.0,0.0,0.04,0.04,0.04,1.0,0.0,0.0,1.0,0,0,-0.0628709569573,-0.0274731200188,0.366000026464,,,0
1558534208203485965,4601,1558534208203181028,/camera_color_optical_frame,marker,0,7,0,0.0,0.0,0.0,0.0,0.0,0.0,0.0,0.04,0.04,0.04,1.0,0.0,0.0,1.0,0,0,-0.0628709569573,-0.0266815125942,0.366000026464,,,0
1558534208231970071,4602,1558534208231647968,/camera_color_optical_frame,marker,0,7,0,0.0,0.0,0.0,0.0,0.0,0.0,0.0,0.04,0.04,0.04,1.0,0.0,0.0,1.0,0,0,-0.0628709569573,-0.0282647255808,0.366000026464,,,0
1558534208264308929,4603,1558534208263999938,/camera_color_optical_frame,marker,0,7,0,0.0,0.0,0.0,0.0,0.0,0.0,0.0,0.04,0.04,0.04,1.0,0.0,0.0,1.0,0,0,-0.0606592223048,-0.0283419508487,0.36700001359,,,0
1558534208303809881,4604,1558534208303446054,/camera_color_optical_frame,marker,0,7,0,0.0,0.0,0.0,0.0,0.0,0.0,0.0,0.04,0.04,0.04,1.0,0.0,0.0,1.0,0,0,-0.0582757107913,-0.0291357189417,0.36700001359,,,0
1558534208562966108,4605,1558534208562644958,/camera_color_optical_frame,marker,0,7,0,0.0,0.0,0.0,0.0,0.0,0.0,0.0,0.04,0.04,0.04,1.0,0.0,0.0,1.0,0,0,0.0211745928973,-0.0783494487405,0.36700001359,,,0
1558534208637765884,4606,1558534208637315034,/camera_color_optical_frame,marker,0,7,0,0.0,0.0,0.0,0.0,0.0,0.0,0.0,0.04,0.04,0.04,1.0,0.0,0.0,1.0,0,0,0.0378591567278,-0.0870809108019,0.36700001359,,,0
1558534208673254013,4607,1558534208673013925,/camera_color_optical_frame,marker,0,7,0,0.0,0.0,0.0,0.0,0.0,0.0,0.0,0.04,0.04,0.04,1.0,0.0,0.0,1.0,0,0,0.0521602146327,-0.0902559906244,0.36700001359,,,0
1558534208703305959,4608,1558534208703031063,/camera_color_optical_frame,marker,0,7,0,0.0,0.0,0.0,0.0,0.0,0.0,0.0,0.04,0.04,0.04,1.0,0.0,0.0,1.0,0,0,0.0573925748467,-0.0917940363288,0.370000004768,,,0
1558534208735470056,4609,1558534208735218048,/camera_color_optical_frame,marker,0,7,0,0.0,0.0,0.0,0.0,0.0,0.0,0.0,0.04,0.04,0.04,1.0,0.0,0.0,1.0,0,0,0.0662035495043,-0.0965955853462,0.370000004768,,,0
1558534208769795894,4610,1558534208769541978,/camera_color_optical_frame,marker,0,7,0,0.0,0.0,0.0,0.0,0.0,0.0,0.0,0.04,0.04,0.04,1.0,0.0,0.0,1.0,0,0,0.0707778036594,-0.0973787978292,0.373000025749,,,0
1558534208788510084,4611,1558534208788078069,/camera_color_optical_frame,marker,0,7,0,0.0,0.0,0.0,0.0,0.0,0.0,0.0,0.04,0.04,0.04,1.0,0.0,0.0,1.0,0,0,0.0756175667048,-0.0984230712056,0.377000004053,,,0
1558534208832921028,4612,1558534208832422971,/camera_color_optical_frame,marker,0,7,0,0.0,0.0,0.0,0.0,0.0,0.0,0.0,0.04,0.04,0.04,1.0,0.0,0.0,1.0,0,0,0.0815823078156,-0.101380847394,0.382000029087,,,0
1558534208866575956,4613,1558534208866069078,/camera_color_optical_frame,marker,0,7,0,0.0,0.0,0.0,0.0,0.0,0.0,0.0,0.04,0.04,0.04,1.0,0.0,0.0,1.0,0,0,0.0894911885262,-0.101911626756,0.384000003338,,,0
1558534208899092912,4614,1558534208898629903,/camera_color_optical_frame,marker,0,7,0,0.0,0.0,0.0,0.0,0.0,0.0,0.0,0.04,0.04,0.04,1.0,0.0,0.0,1.0,0,0,0.0966423749924,-0.101607561111,0.386000007391,,,0
1558534208932748079,4615,1558534208932424068,/camera_color_optical_frame,marker,0,7,0,0.0,0.0,0.0,0.0,0.0,0.0,0.0,0.04,0.04,0.04,1.0,0.0,0.0,1.0,0,0,0.0963031426072,-0.0996164530516,0.388000011444,,,0
1558534208968436956,4616,1558534208968130111,/camera_color_optical_frame,marker,0,7,0,0.0,0.0,0.0,0.0,0.0,0.0,0.0,0.04,0.04,0.04,1.0,0.0,0.0,1.0,0,0,0.100690461695,-0.0980999022722,0.39200001955,,,0
1558534208997253894,4617,1558534208996937990,/camera_color_optical_frame,marker,0,7,0,0.0,0.0,0.0,0.0,0.0,0.0,0.0,0.04,0.04,0.04,1.0,0.0,0.0,1.0,0,0,0.102648898959,-0.0966501459479,0.393000006676,,,0
1558534209022727966,4618,1558534209022422075,/camera_color_optical_frame,marker,0,7,0,0.0,0.0,0.0,0.0,0.0,0.0,0.0,0.04,0.04,0.04,1.0,0.0,0.0,1.0,0,0,0.107753627002,-0.0949501395226,0.393000006676,,,0
1558534209073405981,4619,1558534209073009014,/camera_color_optical_frame,marker,0,7,0,0.0,0.0,0.0,0.0,0.0,0.0,0.0,0.04,0.04,0.04,1.0,0.0,0.0,1.0,0,0,0.112007580698,-0.0966501459479,0.393000006676,,,0
1558534209105396032,4620,1558534209104929924,/camera_color_optical_frame,marker,0,7,0,0.0,0.0,0.0,0.0,0.0,0.0,0.0,0.04,0.04,0.04,1.0,0.0,0.0,1.0,0,0,0.116516336799,-0.0970039740205,0.391000032425,,,0
1558534209136070966,4621,1558534209135787010,/camera_color_optical_frame,marker,0,7,0,0.0,0.0,0.0,0.0,0.0,0.0,0.0,0.04,0.04,0.04,1.0,0.0,0.0,1.0,0,0,0.120748631656,-0.0953126177192,0.391000032425,,,0
1558534209171695947,4622,1558534209171297073,/camera_color_optical_frame,marker,0,7,0,0.0,0.0,0.0,0.0,0.0,0.0,0.0,0.04,0.04,0.04,1.0,0.0,0.0,1.0,0,0,0.123182021081,-0.0937421247363,0.388000011444,,,0
1558534209203550100,4623,1558534209203114986,/camera_color_optical_frame,marker,0,7,0,0.0,0.0,0.0,0.0,0.0,0.0,0.0,0.04,0.04,0.04,1.0,0.0,0.0,1.0,0,0,0.124218344688,-0.0907543227077,0.386000007391,,,0
1558534209240259885,4624,1558534209239948987,/camera_color_optical_frame,marker,0,7,0,0.0,0.0,0.0,0.0,0.0,0.0,0.0,0.04,0.04,0.04,1.0,0.0,0.0,1.0,0,0,0.126068636775,-0.0877924785018,0.384000003338,,,0
1558534209270483016,4625,1558534209270168066,/camera_color_optical_frame,marker,0,7,0,0.0,0.0,0.0,0.0,0.0,0.0,0.0,0.04,0.04,0.04,1.0,0.0,0.0,1.0,0,0,0.126218959689,-0.0837458968163,0.377000004053,,,0
1558534209299721956,4626,1558534209299343109,/camera_color_optical_frame,marker,0,7,0,0.0,0.0,0.0,0.0,0.0,0.0,0.0,0.04,0.04,0.04,1.0,0.0,0.0,1.0,0,0,0.127851262689,-0.0829304978251,0.377000004053,,,0
1558534209331037998,4627,1558534209330682992,/camera_color_optical_frame,marker,0,7,0,0.0,0.0,0.0,0.0,0.0,0.0,0.0,0.04,0.04,0.04,1.0,0.0,0.0,1.0,0,0,0.125549376011,-0.0792462676764,0.375000029802,,,0
1558534209372009038,4628,1558534209368299961,/camera_color_optical_frame,marker,0,7,0,0.0,0.0,0.0,0.0,0.0,0.0,0.0,0.04,0.04,0.04,1.0,0.0,0.0,1.0,0,0,0.126024231315,-0.0766082108021,0.374000012875,,,0
1558534209398633956,4629,1558534209398202896,/camera_color_optical_frame,marker,0,7,0,0.0,0.0,0.0,0.0,0.0,0.0,0.0,0.04,0.04,0.04,1.0,0.0,0.0,1.0,0,0,0.123739637434,-0.0753939524293,0.372000008821,,,0
1558534209432459115,4630,1558534209432087898,/camera_color_optical_frame,marker,0,7,0,0.0,0.0,0.0,0.0,0.0,0.0,0.0,0.04,0.04,0.04,1.0,0.0,0.0,1.0,0,0,0.115189872682,-0.0715629011393,0.373000025749,,,0
1558534209465046882,4631,1558534209464673042,/camera_color_optical_frame,marker,0,7,0,0.0,0.0,0.0,0.0,0.0,0.0,0.0,0.04,0.04,0.04,1.0,0.0,0.0,1.0,0,0,0.109537430108,-0.0675291568041,0.373000025749,,,0
1558534209496622085,4632,1558534209496360063,/camera_color_optical_frame,marker,0,7,0,0.0,0.0,0.0,0.0,0.0,0.0,0.0,0.04,0.04,0.04,1.0,0.0,0.0,1.0,0,0,0.105499967933,-0.0651089176536,0.373000025749,,,0
1558534209531784057,4633,1558534209531503915,/camera_color_optical_frame,marker,0,7,0,0.0,0.0,0.0,0.0,0.0,0.0,0.0,0.04,0.04,0.04,1.0,0.0,0.0,1.0,0,0,0.101995803416,-0.0625206157565,0.372000008821,,,0
1558534209563826084,4634,1558534209563565969,/camera_color_optical_frame,marker,0,7,0,0.0,0.0,0.0,0.0,0.0,0.0,0.0,0.04,0.04,0.04,1.0,0.0,0.0,1.0,0,0,0.100918471813,-0.0607477016747,0.371000021696,,,0
1558534209607713937,4635,1558534209607402086,/camera_color_optical_frame,marker,0,7,0,0.0,0.0,0.0,0.0,0.0,0.0,0.0,0.04,0.04,0.04,1.0,0.0,0.0,1.0,0,0,0.0960994884372,-0.061550129205,0.371000021696,,,0
1558534209639497995,4636,1558534209639206886,/camera_color_optical_frame,marker,0,7,0,0.0,0.0,0.0,0.0,0.0,0.0,0.0,0.04,0.04,0.04,1.0,0.0,0.0,1.0,0,0,0.0944931656122,-0.0623525492847,0.371000021696,,,0
1558534209671241998,4637,1558534209670967102,/camera_color_optical_frame,marker,0,7,0,0.0,0.0,0.0,0.0,0.0,0.0,0.0,0.04,0.04,0.04,1.0,0.0,0.0,1.0,0,0,0.0920836776495,-0.0639573931694,0.371000021696,,,0
1558534209704428911,4638,1558534209703984975,/camera_color_optical_frame,marker,0,7,0,0.0,0.0,0.0,0.0,0.0,0.0,0.0,0.04,0.04,0.04,1.0,0.0,0.0,1.0,0,0,0.0904773548245,-0.0655622333288,0.371000021696,,,0
1558534209735249996,4639,1558534209734638929,/camera_color_optical_frame,marker,0,7,0,0.0,0.0,0.0,0.0,0.0,0.0,0.0,0.04,0.04,0.04,1.0,0.0,0.0,1.0,0,0,0.0887800082564,-0.0669012889266,0.374000012875,,,0
1558534209766010999,4640,1558534209765630006,/camera_color_optical_frame,marker,0,7,0,0.0,0.0,0.0,0.0,0.0,0.0,0.0,0.04,0.04,0.04,1.0,0.0,0.0,1.0,0,0,0.0873937383294,-0.0678912475705,0.375000029802,,,0
1558534209799582958,4641,1558534209799298048,/camera_color_optical_frame,marker,0,7,0,0.0,0.0,0.0,0.0,0.0,0.0,0.0,0.04,0.04,0.04,1.0,0.0,0.0,1.0,0,0,0.0865819230676,-0.0711355432868,0.375000029802,,,0
1558534209843430995,4642,1558534209842952966,/camera_color_optical_frame,marker,0,7,0,0.0,0.0,0.0,0.0,0.0,0.0,0.0,0.04,0.04,0.04,1.0,0.0,0.0,1.0,0,0,0.084595233202,-0.0715149268508,0.377000004053,,,0
1558534209873606920,4643,1558534209872885942,/camera_color_optical_frame,marker,0,7,0,0.0,0.0,0.0,0.0,0.0,0.0,0.0,0.04,0.04,0.04,1.0,0.0,0.0,1.0,0,0,0.0860910564661,-0.0745496749878,0.380000025034,,,0
1558534209907335996,4644,1558534209906228065,/camera_color_optical_frame,marker,0,7,0,0.0,0.0,0.0,0.0,0.0,0.0,0.0,0.04,0.04,0.04,1.0,0.0,0.0,1.0,0,0,0.0866849720478,-0.0751732140779,0.379000008106,,,0
1558534209943022966,4645,1558534209942595958,/camera_color_optical_frame,marker,0,7,0,0.0,0.0,0.0,0.0,0.0,0.0,0.0,0.04,0.04,0.04,1.0,0.0,0.0,1.0,0,0,0.0871424153447,-0.0747458562255,0.381000012159,,,0
1558534209972493886,4646,1558534209972217082,/camera_color_optical_frame,marker,0,7,0,0.0,0.0,0.0,0.0,0.0,0.0,0.0,0.04,0.04,0.04,1.0,0.0,0.0,1.0,0,0,0.0879672244191,-0.0747458562255,0.381000012159,,,0
1558534210004789113,4647,1558534210004477024,/camera_color_optical_frame,marker,0,7,0,0.0,0.0,0.0,0.0,0.0,0.0,0.0,0.04,0.04,0.04,1.0,0.0,0.0,1.0,0,0,0.0863176062703,-0.0722737088799,0.381000012159,,,0
1558534210039602994,4648,1558534210039196014,/camera_color_optical_frame,marker,0,7,0,0.0,0.0,0.0,0.0,0.0,0.0,0.0,0.04,0.04,0.04,1.0,0.0,0.0,1.0,0,0,0.0877363458276,-0.0720840170979,0.380000025034,,,0
1558534210070127010,4649,1558534210069636106,/camera_color_optical_frame,marker,0,7,0,0.0,0.0,0.0,0.0,0.0,0.0,0.0,0.04,0.04,0.04,1.0,0.0,0.0,1.0,0,0,0.0893816426396,-0.0712621286511,0.380000025034,,,0
1558534210108705997,4650,1558534210108416080,/camera_color_optical_frame,marker,0,7,0,0.0,0.0,0.0,0.0,0.0,0.0,0.0,0.04,0.04,0.04,1.0,0.0,0.0,1.0,0,0,0.0893816426396,-0.0720840170979,0.380000025034,,,0
1558534210143057107,4651,1558534210142576932,/camera_color_optical_frame,marker,0,7,0,0.0,0.0,0.0,0.0,0.0,0.0,0.0,0.04,0.04,0.04,1.0,0.0,0.0,1.0,0,0,0.0889112129807,-0.0733397454023,0.378000020981,,,0
1558534210172233104,4652,1558534210171607017,/camera_color_optical_frame,marker,0,7,0,0.0,0.0,0.0,0.0,0.0,0.0,0.0,0.04,0.04,0.04,1.0,0.0,0.0,1.0,0,0,0.0903082937002,-0.0755919143558,0.377000004053,,,0
1558534210205773115,4653,1558534210205265045,/camera_color_optical_frame,marker,0,7,0,0.0,0.0,0.0,0.0,0.0,0.0,0.0,0.04,0.04,0.04,1.0,0.0,0.0,1.0,0,0,0.0957666561007,-0.0778311118484,0.376000016928,,,0
1558534210231682062,4654,1558534210231291055,/camera_color_optical_frame,marker,0,7,0,0.0,0.0,0.0,0.0,0.0,0.0,0.0,0.04,0.04,0.04,1.0,0.0,0.0,1.0,0,0,0.0974250435829,-0.0796303674579,0.373000025749,,,0
1558534210256551027,4655,1558534210256191015,/camera_color_optical_frame,marker,0,7,0,0.0,0.0,0.0,0.0,0.0,0.0,0.0,0.04,0.04,0.04,1.0,0.0,0.0,1.0,0,0,0.0979779288173,-0.0795745179057,0.369000017643,,,0
1558534210300335884,4656,1558534210299921035,/camera_color_optical_frame,marker,0,7,0,0.0,0.0,0.0,0.0,0.0,0.0,0.0,0.04,0.04,0.04,1.0,0.0,0.0,1.0,0,0,0.0987660363317,-0.0805107802153,0.366000026464,,,0
1558534210333940982,4657,1558534210333595037,/camera_color_optical_frame,marker,0,7,0,0.0,0.0,0.0,0.0,0.0,0.0,0.0,0.04,0.04,0.04,1.0,0.0,0.0,1.0,0,0,0.0955645143986,-0.0777588710189,0.357000023127,,,0
1558534210372524976,4658,1558534210372203111,/camera_color_optical_frame,marker,0,7,0,0.0,0.0,0.0,0.0,0.0,0.0,0.0,0.04,0.04,0.04,1.0,0.0,0.0,1.0,0,0,0.095057182014,-0.0779766738415,0.358000010252,,,0
1558534210407720088,4659,1558534210407347917,/camera_color_optical_frame,marker,0,7,0,0.0,0.0,0.0,0.0,0.0,0.0,0.0,0.04,0.04,0.04,1.0,0.0,0.0,1.0,0,0,0.0965661853552,-0.077323243022,0.355000019073,,,0
1558534210436794042,4660,1558534210436281919,/camera_color_optical_frame,marker,0,7,0,0.0,0.0,0.0,0.0,0.0,0.0,0.0,0.04,0.04,0.04,1.0,0.0,0.0,1.0,0,0,0.0935092121363,-0.0770685300231,0.361000031233,,,0
1558534210466686010,4661,1558534210466236114,/camera_color_optical_frame,marker,0,7,0,0.0,0.0,0.0,0.0,0.0,0.0,0.0,0.04,0.04,0.04,1.0,0.0,0.0,1.0,0,0,0.0878304839134,-0.0733880922198,0.370000004768,,,0
1558534210503070116,4662,1558534210502538919,/camera_color_optical_frame,marker,0,7,0,0.0,0.0,0.0,0.0,0.0,0.0,0.0,0.04,0.04,0.04,1.0,0.0,0.0,1.0,0,0,0.0958404541016,-0.0685865432024,0.370000004768,,,0
1558534210539124965,4663,1558534210538749933,/camera_color_optical_frame,marker,0,7,0,0.0,0.0,0.0,0.0,0.0,0.0,0.0,0.04,0.04,0.04,1.0,0.0,0.0,1.0,0,0,0.0984698086977,-0.0706995278597,0.377000004053,,,0
1558534210573576927,4664,1558534210573280096,/camera_color_optical_frame,marker,0,7,0,0.0,0.0,0.0,0.0,0.0,0.0,0.0,0.04,0.04,0.04,1.0,0.0,0.0,1.0,0,0,0.100820548832,-0.0723873153329,0.386000007391,,,0
1558534210608297109,4665,1558534210608033895,/camera_color_optical_frame,marker,0,7,0,0.0,0.0,0.0,0.0,0.0,0.0,0.0,0.04,0.04,0.04,1.0,0.0,0.0,1.0,0,0,0.100298158824,-0.0720122531056,0.384000003338,,,0
1558534210639309883,4666,1558534210638641119,/camera_color_optical_frame,marker,0,7,0,0.0,0.0,0.0,0.0,0.0,0.0,0.0,0.04,0.04,0.04,1.0,0.0,0.0,1.0,0,0,0.0994668528438,-0.0720122531056,0.384000003338,,,0
1558534210671056985,4667,1558534210670752048,/camera_color_optical_frame,marker,0,7,0,0.0,0.0,0.0,0.0,0.0,0.0,0.0,0.04,0.04,0.04,1.0,0.0,0.0,1.0,0,0,0.0997258871794,-0.0705343782902,0.385000020266,,,0
1558534210702311992,4668,1558534210701250076,/camera_color_optical_frame,marker,0,7,0,0.0,0.0,0.0,0.0,0.0,0.0,0.0,0.04,0.04,0.04,1.0,0.0,0.0,1.0,0,0,0.100298158824,-0.0711817070842,0.384000003338,,,0
1558534210730823040,4669,1558534210730447053,/camera_color_optical_frame,marker,0,7,0,0.0,0.0,0.0,0.0,0.0,0.0,0.0,0.04,0.04,0.04,1.0,0.0,0.0,1.0,0,0,0.0997258871794,-0.0721997842193,0.385000020266,,,0
1558534210769718885,4670,1558534210769191980,/camera_color_optical_frame,marker,0,7,0,0.0,0.0,0.0,0.0,0.0,0.0,0.0,0.04,0.04,0.04,1.0,0.0,0.0,1.0,0,0,0.0997258871794,-0.0721997842193,0.385000020266,,,0
1558534210805450916,4671,1558534210801305055,/camera_color_optical_frame,marker,0,7,0,0.0,0.0,0.0,0.0,0.0,0.0,0.0,0.04,0.04,0.04,1.0,0.0,0.0,1.0,0,0,0.0997258871794,-0.0721997842193,0.385000020266,,,0
1558534210821439981,4672,1558534210821182966,/camera_color_optical_frame,marker,0,7,0,0.0,0.0,0.0,0.0,0.0,0.0,0.0,0.04,0.04,0.04,1.0,0.0,0.0,1.0,0,0,0.0997258871794,-0.0721997842193,0.385000020266,,,0
1558534210875449895,4673,1558534210874897956,/camera_color_optical_frame,marker,0,7,0,0.0,0.0,0.0,0.0,0.0,0.0,0.0,0.04,0.04,0.04,1.0,0.0,0.0,1.0,0,0,0.100559361279,-0.0713670775294,0.385000020266,,,0
1558534210907383918,4674,1558534210907015085,/camera_color_optical_frame,marker,0,7,0,0.0,0.0,0.0,0.0,0.0,0.0,0.0,0.04,0.04,0.04,1.0,0.0,0.0,1.0,0,0,0.0999849066138,-0.0723873153329,0.386000007391,,,0
1558534210939847946,4675,1558534210939373970,/camera_color_optical_frame,marker,0,7,0,0.0,0.0,0.0,0.0,0.0,0.0,0.0,0.04,0.04,0.04,1.0,0.0,0.0,1.0,0,0,0.0997258871794,-0.0721997842193,0.385000020266,,,0
1558534210973304033,4676,1558534210972968101,/camera_color_optical_frame,marker,0,7,0,0.0,0.0,0.0,0.0,0.0,0.0,0.0,0.04,0.04,0.04,1.0,0.0,0.0,1.0,0,0,0.0991492792964,-0.0732221826911,0.386000007391,,,0
1558534211005763053,4677,1558534211005378961,/camera_color_optical_frame,marker,0,7,0,0.0,0.0,0.0,0.0,0.0,0.0,0.0,0.04,0.04,0.04,1.0,0.0,0.0,1.0,0,0,0.0988924205303,-0.0730324909091,0.385000020266,,,0
1558534211040884017,4678,1558534211040067911,/camera_color_optical_frame,marker,0,7,0,0.0,0.0,0.0,0.0,0.0,0.0,0.0,0.04,0.04,0.04,1.0,0.0,0.0,1.0,0,0,0.0980589464307,-0.0730324909091,0.385000020266,,,0
1558534211080267906,4679,1558534211079729080,/camera_color_optical_frame,marker,0,7,0,0.0,0.0,0.0,0.0,0.0,0.0,0.0,0.04,0.04,0.04,1.0,0.0,0.0,1.0,0,0,0.0997258871794,-0.0730324909091,0.385000020266,,,0
1558534211109863996,4680,1558534211109594106,/camera_color_optical_frame,marker,0,7,0,0.0,0.0,0.0,0.0,0.0,0.0,0.0,0.04,0.04,0.04,1.0,0.0,0.0,1.0,0,0,0.0988924205303,-0.0738651901484,0.385000020266,,,0
1558534211146205902,4681,1558534211145924091,/camera_color_optical_frame,marker,0,7,0,0.0,0.0,0.0,0.0,0.0,0.0,0.0,0.04,0.04,0.04,1.0,0.0,0.0,1.0,0,0,0.0988924205303,-0.0730324909091,0.385000020266,,,0
1558534211175318956,4682,1558534211174952030,/camera_color_optical_frame,marker,0,7,0,0.0,0.0,0.0,0.0,0.0,0.0,0.0,0.04,0.04,0.04,1.0,0.0,0.0,1.0,0,0,0.0980589464307,-0.0730324909091,0.385000020266,,,0
1558534211206588029,4683,1558534211205837011,/camera_color_optical_frame,marker,0,7,0,0.0,0.0,0.0,0.0,0.0,0.0,0.0,0.04,0.04,0.04,1.0,0.0,0.0,1.0,0,0,0.0958067402244,-0.0740570425987,0.386000007391,,,0
1558534211240349054,4684,1558534211240092039,/camera_color_optical_frame,marker,0,7,0,0.0,0.0,0.0,0.0,0.0,0.0,0.0,0.04,0.04,0.04,1.0,0.0,0.0,1.0,0,0,0.0935415402055,-0.0750859305263,0.387000024319,,,0
1558534211272315979,4685,1558534211271970987,/camera_color_optical_frame,marker,0,7,0,0.0,0.0,0.0,0.0,0.0,0.0,0.0,0.04,0.04,0.04,1.0,0.0,0.0,1.0,0,0,0.0866147503257,-0.0782313644886,0.386000007391,,,0
1558534211311454057,4686,1558534211311103105,/camera_color_optical_frame,marker,0,7,0,0.0,0.0,0.0,0.0,0.0,0.0,0.0,0.04,0.04,0.04,1.0,0.0,0.0,1.0,0,0,0.0811837688088,-0.0786367058754,0.388000011444,,,0
1558534211341119050,4687,1558534211340812921,/camera_color_optical_frame,marker,0,7,0,0.0,0.0,0.0,0.0,0.0,0.0,0.0,0.04,0.04,0.04,1.0,0.0,0.0,1.0,0,0,0.068815484643,-0.0761934444308,0.380000025034,,,0
1558534211374181985,4688,1558534211373662948,/camera_color_optical_frame,marker,0,7,0,0.0,0.0,0.0,0.0,0.0,0.0,0.0,0.04,0.04,0.04,1.0,0.0,0.0,1.0,0,0,0.0612267963588,-0.0753343999386,0.384000003338,,,0
1558534211502707958,4689,1558534211502372980,/camera_color_optical_frame,marker,0,7,0,0.0,0.0,0.0,0.0,0.0,0.0,0.0,0.04,0.04,0.04,1.0,0.0,0.0,1.0,0,0,0.0738939270377,-0.0461772978306,0.346000015736,,,0
1558534211568480968,4690,1558534211568065881,/camera_color_optical_frame,marker,0,7,0,0.0,0.0,0.0,0.0,0.0,0.0,0.0,0.04,0.04,0.04,1.0,0.0,0.0,1.0,0,0,-0.00891825091094,-0.0366693474352,0.363000005484,,,0
1558534211611295938,4691,1558534211611052036,/camera_color_optical_frame,marker,0,7,0,0.0,0.0,0.0,0.0,0.0,0.0,0.0,0.04,0.04,0.04,1.0,0.0,0.0,1.0,0,0,-0.0136333126575,-0.0335288718343,0.363000005484,,,0
1558534211639832973,4692,1558534211639561891,/camera_color_optical_frame,marker,0,7,0,0.0,0.0,0.0,0.0,0.0,0.0,0.0,0.04,0.04,0.04,1.0,0.0,0.0,1.0,0,0,-0.0188179500401,-0.0298861153424,0.357000023127,,,0
1558534211668812990,4693,1558534211668243885,/camera_color_optical_frame,marker,0,7,0,0.0,0.0,0.0,0.0,0.0,0.0,0.0,0.04,0.04,0.04,1.0,0.0,0.0,1.0,0,0,-0.0259902253747,-0.0340304076672,0.360000014305,,,0
1558534211699958086,4694,1558534211699493885,/camera_color_optical_frame,marker,0,7,0,0.0,0.0,0.0,0.0,0.0,0.0,0.0,0.04,0.04,0.04,1.0,0.0,0.0,1.0,0,0,-0.0284069627523,-0.0364673137665,0.361000031233,,,0
1558534211729887008,4695,1558534211728919982,/camera_color_optical_frame,marker,0,7,0,0.0,0.0,0.0,0.0,0.0,0.0,0.0,0.04,0.04,0.04,1.0,0.0,0.0,1.0,0,0,-0.0280845984817,-0.037073418498,0.36700001359,,,0
1558534211765433073,4696,1558534211765007972,/camera_color_optical_frame,marker,0,7,0,0.0,0.0,0.0,0.0,0.0,0.0,0.0,0.04,0.04,0.04,1.0,0.0,0.0,1.0,0,0,-0.0294299274683,-0.0402072705328,0.374000012875,,,0
1558534211807243108,4697,1558534211806941032,/camera_color_optical_frame,marker,0,7,0,0.0,0.0,0.0,0.0,0.0,0.0,0.0,0.04,0.04,0.04,1.0,0.0,0.0,1.0,0,0,-0.0288498457521,-0.0421605817974,0.377000004053,,,0
1558534211832709074,4698,1558534211832436084,/camera_color_optical_frame,marker,0,7,0,0.0,0.0,0.0,0.0,0.0,0.0,0.0,0.04,0.04,0.04,1.0,0.0,0.0,1.0,0,0,-0.0296659953892,-0.0421605817974,0.377000004053,,,0
1558534211862050056,4699,1558534211861749887,/camera_color_optical_frame,marker,0,7,0,0.0,0.0,0.0,0.0,0.0,0.0,0.0,0.04,0.04,0.04,1.0,0.0,0.0,1.0,0,0,-0.028256772086,-0.0416741929948,0.380000025034,,,0
1558534211901571035,4700,1558534211901221990,/camera_color_optical_frame,marker,0,7,0,0.0,0.0,0.0,0.0,0.0,0.0,0.0,0.04,0.04,0.04,1.0,0.0,0.0,1.0,0,0,-0.0291559454054,-0.0417838618159,0.381000012159,,,0
1558534211934086084,4701,1558534211933856010,/camera_color_optical_frame,marker,0,7,0,0.0,0.0,0.0,0.0,0.0,0.0,0.0,0.04,0.04,0.04,1.0,0.0,0.0,1.0,0,0,-0.0298233758658,-0.04320397228,0.379000008106,,,0
1558534211972229957,4702,1558534211971963882,/camera_color_optical_frame,marker,0,7,0,0.0,0.0,0.0,0.0,0.0,0.0,0.0,0.04,0.04,0.04,1.0,0.0,0.0,1.0,0,0,-0.0300594456494,-0.0476770214736,0.382000029087,,,0
1558534212001882076,4703,1558534212001533985,/camera_color_optical_frame,marker,0,7,0,0.0,0.0,0.0,0.0,0.0,0.0,0.0,0.04,0.04,0.04,1.0,0.0,0.0,1.0,0,0,-0.0259245652705,-0.0435459576547,0.382000029087,,,0
1558534212026269912,4704,1558534212025950908,/camera_color_optical_frame,marker,0,7,0,0.0,0.0,0.0,0.0,0.0,0.0,0.0,0.04,0.04,0.04,1.0,0.0,0.0,1.0,0,0,-0.0277229063213,-0.0470960959792,0.384000003338,,,0
1558534212071805000,4705,1558534212071471929,/camera_color_optical_frame,marker,0,7,0,0.0,0.0,0.0,0.0,0.0,0.0,0.0,0.04,0.04,0.04,1.0,0.0,0.0,1.0,0,0,-0.0262638926506,-0.0466270111501,0.387000024319,,,0
1558534212104094028,4706,1558534212103760957,/camera_color_optical_frame,marker,0,7,0,0.0,0.0,0.0,0.0,0.0,0.0,0.0,0.04,0.04,0.04,1.0,0.0,0.0,1.0,0,0,-0.0254917927086,-0.0475866831839,0.388000011444,,,0
1558534212133043050,4707,1558534212132694959,/camera_color_optical_frame,marker,0,7,0,0.0,0.0,0.0,0.0,0.0,0.0,0.0,0.04,0.04,0.04,1.0,0.0,0.0,1.0,0,0,-0.024651825428,-0.0475866831839,0.388000011444,,,0
1558534212166616916,4708,1558534212166197061,/camera_color_optical_frame,marker,0,7,0,0.0,0.0,0.0,0.0,0.0,0.0,0.0,0.04,0.04,0.04,1.0,0.0,0.0,1.0,0,0,-0.0256231930107,-0.0503625236452,0.390000015497,,,0
1558534212198573112,4709,1558534212198239088,/camera_color_optical_frame,marker,0,7,0,0.0,0.0,0.0,0.0,0.0,0.0,0.0,0.04,0.04,0.04,1.0,0.0,0.0,1.0,0,0,-0.026331756264,-0.0526218228042,0.388000011444,,,0
1558534212230483055,4710,1558534212230169057,/camera_color_optical_frame,marker,0,7,0,0.0,0.0,0.0,0.0,0.0,0.0,0.0,0.04,0.04,0.04,1.0,0.0,0.0,1.0,0,0,-0.0253603905439,-0.0540203005075,0.386000007391,,,0
1558534212267304897,4711,1558534212267030954,/camera_color_optical_frame,marker,0,7,0,0.0,0.0,0.0,0.0,0.0,0.0,0.0,0.04,0.04,0.04,1.0,0.0,0.0,1.0,0,0,-0.0266815125942,-0.0541446059942,0.381000012159,,,0
1558534212300632953,4712,1558534212300376892,/camera_color_optical_frame,marker,0,7,0,0.0,0.0,0.0,0.0,0.0,0.0,0.0,0.04,0.04,0.04,1.0,0.0,0.0,1.0,0,0,-0.0249004885554,-0.0530406571925,0.379000008106,,,0
1558534212329530000,4713,1558534212329267978,/camera_color_optical_frame,marker,0,7,0,0.0,0.0,0.0,0.0,0.0,0.0,0.0,0.04,0.04,0.04,1.0,0.0,0.0,1.0,0,0,-0.0249004885554,-0.0522209368646,0.379000008106,,,0
1558534212373483896,4714,1558534212373132944,/camera_color_optical_frame,marker,0,7,0,0.0,0.0,0.0,0.0,0.0,0.0,0.0,0.04,0.04,0.04,1.0,0.0,0.0,1.0,0,0,-0.0250975899398,-0.0526342950761,0.382000029087,,,0
1558534212405283927,4715,1558534212404870986,/camera_color_optical_frame,marker,0,7,0,0.0,0.0,0.0,0.0,0.0,0.0,0.0,0.04,0.04,0.04,1.0,0.0,0.0,1.0,0,0,-0.0243341475725,-0.0519437044859,0.383000016212,,,0
1558534212438026905,4716,1558534212437294006,/camera_color_optical_frame,marker,0,7,0,0.0,0.0,0.0,0.0,0.0,0.0,0.0,0.04,0.04,0.04,1.0,0.0,0.0,1.0,0,0,-0.0243976823986,-0.0520793274045,0.384000003338,,,0
1558534212471193075,4717,1558534212470881938,/camera_color_optical_frame,marker,0,7,0,0.0,0.0,0.0,0.0,0.0,0.0,0.0,0.04,0.04,0.04,1.0,0.0,0.0,1.0,0,0,-0.0252289902419,-0.0520793274045,0.384000003338,,,0
1558534212503884077,4718,1558534212503268957,/camera_color_optical_frame,marker,0,7,0,0.0,0.0,0.0,0.0,0.0,0.0,0.0,0.04,0.04,0.04,1.0,0.0,0.0,1.0,0,0,-0.0236277505755,-0.0522149540484,0.385000020266,,,0
1558534212529112100,4719,1558534212528810977,/camera_color_optical_frame,marker,0,7,0,0.0,0.0,0.0,0.0,0.0,0.0,0.0,0.04,0.04,0.04,1.0,0.0,0.0,1.0,0,0,-0.0244612190872,-0.0522149540484,0.385000020266,,,0
1558534212573827028,4720,1558534212573369979,/camera_color_optical_frame,marker,0,7,0,0.0,0.0,0.0,0.0,0.0,0.0,0.0,0.04,0.04,0.04,1.0,0.0,0.0,1.0,0,0,-0.0252946913242,-0.0522149540484,0.385000020266,,,0
1558534212608232021,4721,1558534212607886075,/camera_color_optical_frame,marker,0,7,0,0.0,0.0,0.0,0.0,0.0,0.0,0.0,0.04,0.04,0.04,1.0,0.0,0.0,1.0,0,0,-0.0252946913242,-0.0522149540484,0.385000020266,,,0
1558534212638555049,4722,1558534212637861967,/camera_color_optical_frame,marker,0,7,0,0.0,0.0,0.0,0.0,0.0,0.0,0.0,0.04,0.04,0.04,1.0,0.0,0.0,1.0,0,0,-0.0244612190872,-0.0513822510839,0.385000020266,,,0
1558534212672164916,4723,1558534212671200037,/camera_color_optical_frame,marker,0,7,0,0.0,0.0,0.0,0.0,0.0,0.0,0.0,0.04,0.04,0.04,1.0,0.0,0.0,1.0,0,0,-0.0245247539133,-0.0515157096088,0.386000007391,,,0
1558534212706828117,4724,1558534212706434965,/camera_color_optical_frame,marker,0,7,0,0.0,0.0,0.0,0.0,0.0,0.0,0.0,0.04,0.04,0.04,1.0,0.0,0.0,1.0,0,0,-0.0237504914403,-0.051649171859,0.387000024319,,,0
1558534212735505104,4725,1558534212735194921,/camera_color_optical_frame,marker,0,7,0,0.0,0.0,0.0,0.0,0.0,0.0,0.0,0.04,0.04,0.04,1.0,0.0,0.0,1.0,0,0,-0.0245247539133,-0.0515157096088,0.386000007391,,,0
1558534212771220922,4726,1558534212770850896,/camera_color_optical_frame,marker,0,7,0,0.0,0.0,0.0,0.0,0.0,0.0,0.0,0.04,0.04,0.04,1.0,0.0,0.0,1.0,0,0,-0.0253603905439,-0.0515157096088,0.386000007391,,,0
1558534212801649093,4727,1558534212801259994,/camera_color_optical_frame,marker,0,7,0,0.0,0.0,0.0,0.0,0.0,0.0,0.0,0.04,0.04,0.04,1.0,0.0,0.0,1.0,0,0,-0.0236891191453,-0.0506808459759,0.386000007391,,,0
1558534212833806037,4728,1558534212833538055,/camera_color_optical_frame,marker,0,7,0,0.0,0.0,0.0,0.0,0.0,0.0,0.0,0.04,0.04,0.04,1.0,0.0,0.0,1.0,0,0,-0.0244612190872,-0.0505495518446,0.385000020266,,,0
1558534212861603021,4729,1558534212861277103,/camera_color_optical_frame,marker,0,7,0,0.0,0.0,0.0,0.0,0.0,0.0,0.0,0.04,0.04,0.04,1.0,0.0,0.0,1.0,0,0,-0.0245247539133,-0.0506808459759,0.386000007391,,,0
1558534212912303924,4730,1558534212911883115,/camera_color_optical_frame,marker,0,7,0,0.0,0.0,0.0,0.0,0.0,0.0,0.0,0.04,0.04,0.04,1.0,0.0,0.0,1.0,0,0,-0.0253603905439,-0.0523505732417,0.386000007391,,,0
1558534212947621107,4731,1558534212947133064,/camera_color_optical_frame,marker,0,7,0,0.0,0.0,0.0,0.0,0.0,0.0,0.0,0.04,0.04,0.04,1.0,0.0,0.0,1.0,0,0,-0.0244612190872,-0.0513822510839,0.385000020266,,,0
1558534212977560997,4732,1558534212977160930,/camera_color_optical_frame,marker,0,7,0,0.0,0.0,0.0,0.0,0.0,0.0,0.0,0.04,0.04,0.04,1.0,0.0,0.0,1.0,0,0,-0.0236277505755,-0.0522149540484,0.385000020266,,,0
1558534213010689020,4733,1558534213010236978,/camera_color_optical_frame,marker,0,7,0,0.0,0.0,0.0,0.0,0.0,0.0,0.0,0.04,0.04,0.04,1.0,0.0,0.0,1.0,0,0,-0.0236891191453,-0.0531854368746,0.386000007391,,,0
1558534213041778087,4734,1558534213041310071,/camera_color_optical_frame,marker,0,7,0,0.0,0.0,0.0,0.0,0.0,0.0,0.0,0.04,0.04,0.04,1.0,0.0,0.0,1.0,0,0,-0.0228534843773,-0.0531854368746,0.386000007391,,,0
1558534213071216106,4735,1558534213070625066,/camera_color_optical_frame,marker,0,7,0,0.0,0.0,0.0,0.0,0.0,0.0,0.0,0.04,0.04,0.04,1.0,0.0,0.0,1.0,0,0,-0.0235663782805,-0.0529098659754,0.384000003338,,,0
1558534213104181051,4736,1558534213103846073,/camera_color_optical_frame,marker,0,7,0,0.0,0.0,0.0,0.0,0.0,0.0,0.0,0.04,0.04,0.04,1.0,0.0,0.0,1.0,0,0,-0.0235663782805,-0.0529098659754,0.384000003338,,,0
1558534213140438079,4737,1558534213140109062,/camera_color_optical_frame,marker,0,7,0,0.0,0.0,0.0,0.0,0.0,0.0,0.0,0.04,0.04,0.04,1.0,0.0,0.0,1.0,0,0,-0.0242706127465,-0.0542867220938,0.382000029087,,,0
1558534213172184944,4738,1558534213171864986,/camera_color_optical_frame,marker,0,7,0,0.0,0.0,0.0,0.0,0.0,0.0,0.0,0.04,0.04,0.04,1.0,0.0,0.0,1.0,0,0,-0.0226166620851,-0.053460508585,0.382000029087,,,0
